City ID,City,Lat,Lng,Max Temp,Humidity,Cloudiness,Wind Speed,Country,Date
0,Laguna,38.421,-121.4238,53.2,88,0,0.0,US,1645277633
1,Butaritari,3.0707,172.7902,80.35,83,100,18.88,KI,1645277687
2,Avarua,-21.2078,-159.775,77.05,88,75,3.44,CK,1645277687
3,Touros,-5.1989,-35.4608,86.9,63,91,12.01,BR,1645277687
4,Bluff,-46.6,168.3333,45.81,69,48,6.24,NZ,1645277687
5,Kavieng,-2.5744,150.7967,82.81,79,96,16.78,PG,1645277688
6,Cayenne,4.9333,-52.3333,79.09,86,100,5.75,GF,1645277688
7,Cape Town,-33.9258,18.4232,81.09,45,0,13.8,ZA,1645277659
8,Abu Kamal,34.4506,40.9171,66.04,32,100,19.51,SY,1645277688
9,Togur,58.3631,82.8265,13.53,96,30,6.91,RU,1645277688
10,La Santisima Trinidad,-14.8333,-64.9,80.58,83,40,2.3,BO,1645277688
11,Mutoko,-17.397,32.2268,69.8,73,99,1.95,ZW,1645277688
12,Albany,42.6001,-73.9662,28.8,65,100,8.16,US,1645277688
13,Ponta do Sol,32.6667,-17.1,62.01,62,55,11.3,PT,1645277603
14,Mataura,-46.1927,168.8643,45.48,93,11,1.9,NZ,1645277688
15,Kavaratti,10.5669,72.642,81.57,70,0,6.89,IN,1645277688
16,Eureka,40.8021,-124.1637,42.26,95,0,3.91,US,1645277467
17,Castro,-24.7911,-50.0119,74.82,54,0,4.52,BR,1645277689
18,Longyearbyen,78.2186,15.6401,3.04,78,20,13.8,SJ,1645277523
19,Poum,-20.2333,164.0167,80.71,76,100,13.76,NC,1645277689
20,Ribeira Grande,38.5167,-28.7,57.6,51,75,3.44,PT,1645277689
21,Vaini,-21.2,-175.2,78.96,89,20,4.61,TO,1645277689
22,Kuytun,54.3419,101.5036,10.72,98,100,4.05,RU,1645277689
23,Okhotsk,59.3833,143.3,-6.36,90,94,6.96,RU,1645277689
24,Lebu,-37.6167,-73.65,62.37,75,0,7.23,CL,1645277689
25,New Norfolk,-42.7826,147.0587,56.75,90,100,3.51,AU,1645277689
26,Port Alfred,-33.5906,26.891,82.33,67,2,20.42,ZA,1645277690
27,Ginda,30.6945,78.4932,49.17,61,51,3.53,IN,1645277690
28,Ushuaia,-54.8,-68.3,44.26,49,40,6.91,AR,1645277690
29,Suffolk,40.8668,-72.7996,35.65,67,0,8.05,US,1645277690
30,Kenai,60.5544,-151.2583,33.89,85,0,10.36,US,1645277690
31,Bredasdorp,-34.5322,20.0403,79.92,39,88,24.16,ZA,1645277690
32,Letka,59.6011,49.4232,30.9,92,99,10.31,RU,1645277690
33,Upernavik,72.7868,-56.1549,-12.62,83,93,2.77,GL,1645277481
34,Bairiki Village,1.3292,172.9752,82.4,78,75,10.36,KI,1645277690
35,Hambantota,6.1241,81.1185,82.74,83,40,6.91,LK,1645277690
36,Verkhnevilyuysk,63.4453,120.3167,-24.03,100,91,2.71,RU,1645277690
37,Rikitea,-23.1203,-134.9692,77.79,72,16,10.18,PF,1645277690
38,Ubari,26.5921,12.7805,71.51,15,3,11.99,LY,1645277691
39,Hutchinson,38.0608,-97.9298,26.35,55,0,3.44,US,1645277691
40,Mahébourg,-20.4081,57.7,82.69,83,75,20.71,MU,1645277691
41,Skjervøy,70.0311,20.9714,29.89,55,100,9.06,NO,1645277691
42,Qaanaaq,77.484,-69.3632,-0.81,51,16,8.55,GL,1645277691
43,Tsabong,-26.0217,22.401,88.74,32,73,16.6,BW,1645277691
44,Marabu,4.4148,114.0089,78.94,94,40,3.44,MY,1645277691
45,Arraial do Cabo,-22.9661,-42.0278,82.36,78,75,4.61,BR,1645277691
46,Puerto del Rosario,28.5004,-13.8627,71.28,68,40,14.97,ES,1645277421
47,Norman Wells,65.282,-126.8329,-16.56,69,100,4.61,CA,1645277692
48,Chui,-33.6971,-53.4616,78.91,52,6,3.8,UY,1645277692
49,Talnakh,69.4865,88.3972,16.21,94,100,16.84,RU,1645277487
50,Sainte-Suzanne,-20.9061,55.6089,82.58,83,100,29.93,RE,1645277692
51,Amga,60.8953,131.9608,-21.77,100,100,1.05,RU,1645277692
52,Lagoa,39.05,-27.9833,53.29,54,59,1.59,PT,1645277692
53,Kidal,18.4411,1.4078,89.85,8,62,11.95,ML,1645277692
54,Hilo,19.7297,-155.09,69.24,84,100,6.91,US,1645277501
55,Atuona,-9.8,-139.0333,77.83,72,2,19.8,PF,1645277692
56,Egvekinot,66.3167,-179.1667,-18.78,86,9,15.03,RU,1645277404
57,Ahipara,-35.1667,173.1667,63.55,92,10,3.15,NZ,1645277692
58,Cabo San Lucas,22.8909,-109.9124,65.52,76,40,6.91,MX,1645277692
59,Punta Arenas,-53.15,-70.9167,42.91,75,75,14.97,CL,1645277508
60,Katsuura,35.1333,140.3,55.42,85,100,28.54,JP,1645277693
61,San Patricio,28.017,-97.5169,53.46,59,50,9.31,US,1645277693
62,San Jose,37.3394,-121.895,55.58,63,0,4.61,US,1645277693
63,Tacuarembó,-31.7333,-55.9833,84.58,35,0,7.11,UY,1645277693
64,Port Elizabeth,-33.918,25.5701,81.1,61,0,5.75,ZA,1645277693
65,Yushala,57.0761,64.2601,24.55,76,1,10.33,RU,1645277693
66,Thompson,55.7435,-97.8558,-29.04,75,100,2.3,CA,1645277693
67,Bonthe,7.5264,-12.505,89.62,51,15,13.09,SL,1645277693
68,Mandera,3.9366,41.867,99.25,18,76,9.93,KE,1645277693
69,Carnarvon,-24.8667,113.6333,87.87,62,78,14.97,AU,1645277694
70,Karratha,-20.7377,116.8463,90.75,51,5,2.75,AU,1645277694
71,Vanavara,60.34,102.2797,-0.29,99,100,2.82,RU,1645277694
72,Coffs Harbour,-30.3,153.1333,68.27,90,75,9.22,AU,1645277694
73,Prikubanskiy,45.0015,41.1795,45.66,94,100,5.84,RU,1645277694
74,Premnitz,52.5333,12.3333,47.28,66,49,17.65,DE,1645277694
75,Hobart,-42.8794,147.3294,57.11,84,100,6.91,AU,1645277663
76,Constantine,36.365,6.6147,69.21,30,0,11.5,DZ,1645277694
77,Shitanjing,39.2342,106.3439,13.05,32,0,3.87,CN,1645277694
78,Endwell,42.1129,-76.021,28.94,68,100,8.99,US,1645277694
79,Mar del Plata,-38.0023,-57.5575,71.62,90,75,11.99,AR,1645277695
80,Santa Cruz de la Sierra,-17.8,-63.1667,80.65,74,20,10.36,BO,1645277695
81,Ploemeur,47.7333,-3.4333,51.85,70,75,24.16,FR,1645277683
82,Jamestown,42.097,-79.2353,20.01,69,100,19.57,US,1645277695
83,Marsá Maţrūḩ,31.3525,27.2453,62.8,63,40,18.41,EG,1645277695
84,Busselton,-33.65,115.3333,72.09,65,99,15.82,AU,1645277695
85,Sri Aman,1.2376,111.4621,78.85,100,100,0.0,MY,1645277695
86,Garoowe,8.4054,48.4845,91.18,17,5,13.65,SO,1645277695
87,Saint-Philippe,-21.3585,55.7679,81.95,92,100,21.92,RE,1645277695
88,Hong Kong,22.2855,114.1577,52.25,94,100,8.99,HK,1645277567
89,Katangli,51.7102,143.2326,11.55,95,100,10.42,RU,1645277696
90,Bengkulu,-3.8004,102.2655,79.34,81,87,2.15,ID,1645277696
91,Lorengau,-2.0226,147.2712,81.18,83,100,8.99,PG,1645277696
92,Datong,40.0936,113.2914,6.55,86,4,1.54,CN,1645277666
93,Yazoo City,32.8551,-90.4056,30.9,56,0,2.71,US,1645277696
94,Mitsamiouli,-11.3847,43.2844,89.89,66,20,6.91,KM,1645277696
95,Ginir,7.1333,40.7,81.07,18,9,12.64,ET,1645277510
96,Bilma,18.6853,12.9164,79.3,10,29,9.95,NE,1645277696
97,Derazhnya,49.2692,27.4338,46.11,53,96,18.01,UA,1645277696
98,Kahului,20.8947,-156.47,72.84,87,20,3.44,US,1645277696
99,Meulaboh,4.1363,96.1285,80.55,79,16,0.56,ID,1645277696
100,Portland,45.5234,-122.6762,42.17,94,100,1.99,US,1645277544
101,Alta Floresta,-9.8756,-56.0861,78.62,89,75,9.22,BR,1645277697
102,Gravdal,68.1214,13.5031,29.88,64,75,6.91,NO,1645277697
103,Gusev,54.5922,22.1997,36.59,96,100,23.24,RU,1645277697
104,Lopandino,52.4666,34.8163,35.04,93,100,20.71,RU,1645277697
105,Calama,-22.4667,-68.9333,61.29,44,0,16.11,CL,1645277697
106,Deputatsky,69.3,139.9,-33.66,100,76,1.7,RU,1645277605
107,Ixtapa,20.7,-105.2,65.23,100,0,2.3,MX,1645277697
108,Provideniya,64.3833,-173.3,-13.95,93,26,4.54,RU,1645277697
109,Warrnambool,-38.3833,142.4833,53.82,78,96,4.21,AU,1645277697
110,Taoudenni,22.6783,-3.9836,83.07,8,99,10.51,ML,1645277698
111,Norwich,52.6278,1.2983,43.12,85,75,16.11,GB,1645277400
112,Chennai,13.0878,80.2785,81.97,74,20,6.91,IN,1645277609
113,Nishihara,26.1842,127.7558,63.68,83,75,25.32,JP,1645277698
114,Turukhansk,65.8167,87.9833,21.18,95,100,17.05,RU,1645277698
115,Shimoda,34.6667,138.95,46.51,91,100,19.39,JP,1645277698
116,Springdale,36.1867,-94.1288,32.49,80,0,4.61,US,1645277698
117,Bethel,41.3712,-73.414,32.49,65,0,9.22,US,1645277698
118,Chokurdakh,70.6333,147.9167,-33.56,100,100,1.88,RU,1645277698
119,Acapulco de Juárez,16.8634,-99.8901,73.22,88,0,3.44,MX,1645277699
120,Saint Paul Harbor,57.79,-152.4072,38.71,70,20,12.66,US,1645277699
121,Dingle,10.9995,122.6711,76.57,87,75,7.09,PH,1645277699
122,Youkounkoun,12.5333,-13.1333,100.13,7,3,7.49,GN,1645277699
123,Shipitsyno,61.2806,46.5208,28.71,89,94,11.5,RU,1645277699
124,Ajdabiya,30.7554,20.2263,63.09,62,11,11.92,LY,1645277699
125,Lerwick,60.1545,-1.1494,41.0,60,30,15.17,GB,1645277699
126,Kapaa,22.0752,-159.319,67.98,75,0,8.05,US,1645277699
127,Klaksvík,62.2266,-6.589,32.92,54,89,15.52,FO,1645277699
128,Cherskiy,68.75,161.3,-42.54,100,48,4.32,RU,1645277700
129,Udachny,66.4167,112.4,-21.35,97,51,8.97,RU,1645277700
130,Pevek,69.7008,170.3133,-35.34,99,42,5.75,RU,1645277700
131,Bokoro,12.3807,17.0568,90.59,10,2,16.28,TD,1645277700
132,Dillon,34.4166,-79.3712,43.11,39,0,8.39,US,1645277700
133,East London,-33.0153,27.9116,83.34,65,0,13.8,ZA,1645277401
134,Kuloy,61.0305,42.4925,31.98,87,100,10.8,RU,1645277700
135,Buedelsdorf,54.3167,9.6833,43.12,65,24,25.32,DE,1645277700
136,Berbera,10.4396,45.0143,78.64,66,100,14.83,SO,1645277700
137,Nichinan,31.6,131.3667,44.76,92,93,6.31,JP,1645277700
138,Paamiut,61.994,-49.6678,1.47,86,8,11.81,GL,1645277701
139,Tegul'det,57.3064,88.1667,10.4,99,92,4.54,RU,1645277701
140,Znamenskoye,57.1281,73.8282,8.4,96,11,4.94,RU,1645277701
141,Pochutla,15.7432,-96.4661,75.02,40,0,1.79,MX,1645277701
142,Saskylakh,71.9167,114.0833,-24.48,98,9,8.08,RU,1645277701
143,Namatanai,-3.6667,152.4333,80.53,82,63,10.47,PG,1645277701
144,Tiznit Province,29.5833,-9.5,63.93,38,0,11.12,MA,1645277701
145,Smolenka,52.1352,113.4974,-11.06,77,80,4.47,RU,1645277702
146,Hasaki,35.7333,140.8333,45.28,83,100,31.21,JP,1645277702
147,Porto-Novo,6.4965,2.6036,89.04,56,100,13.38,BJ,1645277702
148,Severo-Kuril'sk,50.6789,156.125,27.07,80,85,7.38,RU,1645277702
149,Kysyl-Syr,63.8986,122.7617,-24.93,100,96,3.18,RU,1645277702
150,Altay,47.8667,88.1167,10.38,76,100,5.28,CN,1645277702
151,Vila Velha,-20.3297,-40.2925,82.35,80,40,10.36,BR,1645277559
152,Gushikawa,26.3544,127.8686,63.63,94,100,9.22,JP,1645277703
153,Puerto Ayora,-0.7393,-90.3518,77.56,91,25,5.01,EC,1645277703
154,Yellowknife,62.456,-114.3525,-22.45,69,40,8.05,CA,1645277535
155,Virginia Beach,36.8529,-75.978,40.05,73,0,0.0,US,1645277650
156,Tūkrah,32.5341,20.5791,61.21,71,0,8.66,LY,1645277703
157,Dubbo,-32.25,148.6167,68.13,68,40,14.97,AU,1645277703
158,Salinas,36.6777,-121.6555,55.69,68,0,3.44,US,1645277703
159,Fortuna,40.5982,-124.1573,41.99,97,75,8.05,US,1645277703
160,Bathsheba,13.2167,-59.5167,81.21,65,40,17.27,BB,1645277704
161,Nizhniy Baskunchak,48.2198,46.8311,42.71,84,98,8.75,RU,1645277704
162,Fort Nelson,58.8053,-122.7002,-0.81,78,100,13.8,CA,1645277704
163,Teahupoo,-17.8333,-149.2667,67.96,74,56,16.4,PF,1645277704
164,Bahía de Caráquez,-0.6,-80.4167,78.98,84,99,2.95,EC,1645277704
165,Maceió,-9.6658,-35.7353,90.84,51,40,14.97,BR,1645277704
166,Marsh Harbour,26.5412,-77.0636,75.4,80,0,9.95,BS,1645277704
167,Batatais,-20.8911,-47.585,75.18,61,99,2.33,BR,1645277704
168,Puerto Colombia,10.9878,-74.9547,78.89,70,53,14.72,CO,1645277704
169,Somerset,40.5668,-74.5496,33.12,66,3,1.99,US,1645277705
170,Tura,25.5198,90.2201,59.67,38,0,1.99,IN,1645277457
171,Srandakan,-7.9386,110.2506,63.73,83,88,1.72,ID,1645277705
172,Hithadhoo,-0.6,73.0833,82.27,68,55,6.93,MV,1645277705
173,Partyzany,46.3314,34.7503,47.79,53,77,15.14,UA,1645277705
174,Praia da Vitória,38.7333,-27.0667,58.75,88,75,3.6,PT,1645277705
175,Cidreira,-30.1811,-50.2056,76.37,62,0,9.91,BR,1645277705
176,Nouadhibou,20.931,-17.0347,75.18,35,0,20.71,MR,1645277706
177,Yulara,-25.2406,130.9889,76.84,29,0,6.91,AU,1645277706
178,Hermanus,-34.4187,19.2345,79.9,75,41,17.74,ZA,1645277655
179,Dikson,73.5069,80.5464,7.88,93,100,19.13,RU,1645277706
180,Port Lincoln,-34.7333,135.8667,60.49,74,100,8.41,AU,1645277706
181,Khatanga,71.9667,102.5,-29.24,100,11,3.96,RU,1645277706
182,Tiksi,71.6872,128.8694,-25.08,99,88,6.17,RU,1645277706
183,Aklavik,68.2191,-135.0107,-17.57,97,97,7.96,CA,1645277706
184,La Ronge,55.1001,-105.2842,1.65,78,100,11.5,CA,1645277706
185,Paide,58.8856,25.5572,32.9,99,100,4.92,EE,1645277707
186,Haines Junction,60.7522,-137.5108,19.35,86,100,1.14,CA,1645277707
187,Nanortalik,60.1432,-45.2371,18.14,67,100,21.12,GL,1645277707
188,Bonavista,48.6499,-53.1147,19.4,63,97,18.88,CA,1645277707
189,Puerto Escondido,15.85,-97.0667,70.63,88,0,9.22,MX,1645277707
190,Corner Brook,48.9667,-57.9484,17.76,80,98,8.3,CA,1645277707
191,Marquette,46.5333,-87.6335,5.68,77,97,13.33,US,1645277707
192,Zhengjiatun,43.5064,123.5064,8.78,79,96,5.95,CN,1645277707
193,Agüimes,27.9054,-15.4461,66.83,52,75,23.02,ES,1645277707
194,Rosarito,32.3333,-117.0333,55.2,38,0,1.16,MX,1645277707
195,Abu Samrah,35.3029,37.1841,58.41,48,96,12.15,SY,1645277707
196,Tuktoyaktuk,69.4541,-133.0374,-22.74,100,98,5.84,CA,1645277708
197,Taft,31.7471,54.2088,67.95,15,20,2.3,IR,1645277708
198,Las Choapas,17.9333,-94.0833,66.25,95,100,18.81,MX,1645277708
199,Saldanha,-33.0117,17.9442,77.05,77,60,13.04,ZA,1645277708
200,Solnechnyy,50.7214,136.6319,-0.4,96,100,4.12,RU,1645277708
201,Santa Maria,-29.6842,-53.8069,74.5,73,0,8.05,BR,1645277700
202,Kamennogorsk,60.9545,29.1339,34.66,98,100,4.63,RU,1645277708
203,Atambua,-9.1061,124.8925,75.22,89,96,4.05,ID,1645277708
204,Cap Malheureux,-19.9842,57.6142,82.89,80,100,15.99,MU,1645277708
205,Ostrovnoy,68.0531,39.5131,22.12,88,100,18.21,RU,1645277708
206,Sucúa,-2.4667,-78.1667,70.54,94,75,2.3,EC,1645277708
207,Souillac,-20.5167,57.5167,82.78,83,75,20.71,MU,1645277709
208,Coquimbo,-29.9533,-71.3436,65.93,72,0,3.44,CL,1645277502
209,Pierre,44.3683,-100.351,14.92,55,100,14.0,US,1645277709
210,Tuatapere,-46.1333,167.6833,45.82,86,20,3.06,NZ,1645277709
211,Kisaran,2.9845,99.6158,77.05,89,16,3.11,ID,1645277709
212,Carutapera,-1.195,-46.02,86.49,61,20,7.96,BR,1645277709
213,Menongue,-14.6585,17.691,75.2,66,100,5.37,AO,1645277709
214,Airai,-8.9266,125.4092,61.74,94,100,1.83,TL,1645277709
215,La Crosse,43.8014,-91.2396,4.41,68,0,12.66,US,1645277709
216,Oranjemund,-28.55,16.4333,69.4,74,54,15.43,NA,1645277709
217,Marzuq,14.4,46.4667,80.62,26,1,10.85,YE,1645277710
218,Svetlaya,46.5389,138.3297,16.88,94,100,10.67,RU,1645277710
219,Mount Isa,-20.7333,139.5,83.97,34,0,6.91,AU,1645277458
220,San Cristobal,7.7669,-72.225,64.58,83,99,2.13,VE,1645277671
221,Sorong,-0.8833,131.25,77.04,90,100,6.89,ID,1645277710
222,Grand Gaube,-20.0064,57.6608,82.8,80,100,15.99,MU,1645277710
223,Roebourne,-20.7833,117.1333,91.9,46,29,4.03,AU,1645277710
224,Los Llanos de Aridane,28.6585,-17.9182,63.12,63,75,17.27,ES,1645277710
225,Iqaluit,63.7506,-68.5145,-32.31,66,40,0.0,CA,1645277710
226,North Platte,41.1239,-100.7654,24.69,80,100,5.75,US,1645277710
227,Juneau,58.3019,-134.4197,39.22,95,100,3.44,US,1645277710
228,Houma,29.5958,-90.7195,45.0,81,0,8.05,US,1645277711
229,Samarina,57.8878,27.8054,35.49,97,100,15.84,RU,1645277711
230,Moree,-29.4667,149.85,73.42,68,62,11.5,AU,1645277711
231,Kaitangata,-46.2817,169.8464,45.14,91,3,3.58,NZ,1645277711
232,Lysyye Gory,51.5506,44.8414,31.69,88,100,10.8,RU,1645277711
233,Broken Hill,-31.95,141.4333,69.51,32,0,6.91,AU,1645277711
234,Hecelchakán,20.1667,-90.1333,69.08,87,18,4.68,MX,1645277711
235,Koumac,-20.5667,164.2833,78.6,82,100,3.87,NC,1645277711
236,Kutum,14.2,24.6667,74.59,13,1,16.08,SD,1645277711
237,Yenagoa,4.9247,6.2642,97.29,36,100,8.79,NG,1645277712
238,Narsaq,60.9167,-46.05,12.42,71,100,1.48,GL,1645277475
239,Shingū,33.7333,135.9833,44.91,93,100,4.81,JP,1645277712
240,Xining,36.6167,101.7667,14.13,83,8,2.3,CN,1645277712
241,Zhangye,38.9342,100.4517,19.63,33,0,1.19,CN,1645277712
242,Hammerfest,70.6634,23.6821,23.45,80,40,13.8,NO,1645277553
243,Ancud,-41.8697,-73.8203,61.43,95,98,11.39,CL,1645277712
244,Ust-Tsilma,65.441,52.1498,28.83,82,76,11.81,RU,1645277712
245,Tottori-shi,35.5,134.2333,40.3,94,100,4.74,JP,1645277712
246,Bontang,0.1333,117.5,76.69,87,100,5.46,ID,1645277712
247,Lüderitz,-26.6481,15.1594,77.0,56,0,21.94,NA,1645277712
248,São Gabriel da Cachoeira,-0.1303,-67.0892,76.8,88,75,8.05,BR,1645277712
249,Rio Grande,-32.035,-52.0986,84.31,57,0,10.54,BR,1645277713
250,Sambava,-14.2667,50.1667,83.08,75,62,14.74,MG,1645277713
251,Nikolskoye,59.7035,30.7861,35.87,99,100,5.32,RU,1645277713
252,Tasiilaq,65.6145,-37.6368,17.76,57,100,35.08,GL,1645277713
253,Hofn,64.2539,-15.2082,26.19,62,30,9.84,IS,1645277713
254,Kruisfontein,-34.0033,24.7314,78.89,42,13,19.66,ZA,1645277713
255,Toktogul,41.8708,72.9402,25.45,64,3,3.56,KG,1645277713
256,Morón,-34.6534,-58.6198,79.95,75,0,4.18,AR,1645277713
257,Isangel,-19.55,169.2667,78.58,86,100,4.81,VU,1645277713
258,Uarini,-2.99,-65.1083,76.95,78,100,2.42,BR,1645277713
259,Eirunepé,-6.6603,-69.8736,81.82,73,94,3.38,BR,1645277714
260,La Rioja,42.25,-2.5,47.32,68,100,8.55,ES,1645277714
261,Asău,46.4333,26.4,59.92,62,54,11.3,RO,1645277714
262,Labuhan,-6.8844,112.2051,79.21,83,97,6.58,ID,1645277714
263,Esim,4.8699,-2.2405,84.24,70,100,8.61,GH,1645277714
264,Kargil,34.5667,76.1,5.29,91,100,1.03,IN,1645277714
265,Codrington,-38.2667,141.9667,55.29,80,80,4.14,AU,1645277714
266,Oktyabr'skoye,43.0645,44.7417,46.54,43,75,11.18,RU,1645277714
267,Lompoc,34.6391,-120.4579,57.78,96,0,8.05,US,1645277714
268,Baoqing,46.3317,132.2111,0.72,99,99,4.07,CN,1645277714
269,Kiryat Gat,31.61,34.7642,57.88,79,100,8.68,IL,1645277714
270,Bom Jesus,-9.0744,-44.3586,85.08,61,92,4.83,BR,1645277715
271,Barrow,71.2906,-156.7887,-20.18,69,100,6.91,US,1645277701
272,Hirara,24.8,125.2833,64.06,80,100,30.53,JP,1645277715
273,Bubaque,11.2833,-15.8333,80.47,48,35,6.8,GW,1645277715
274,Palmer,42.1584,-72.3287,27.43,61,20,10.36,US,1645277715
275,Malé,4.1748,73.5089,84.15,79,40,14.97,MV,1645277516
276,Port Hardy,50.6996,-127.4199,44.76,87,100,6.91,CA,1645277715
277,São Filipe,14.8961,-24.4956,72.99,55,11,10.96,CV,1645277715
278,Alofi,-19.0595,-169.9187,73.29,100,20,0.0,NU,1645277715
279,Avera,33.194,-82.5271,36.68,64,2,9.28,US,1645277716
280,Xai-Xai,-25.0519,33.6442,82.45,61,5,9.78,MZ,1645277716
281,Campbell River,50.0163,-125.2446,42.46,94,100,1.72,CA,1645277716
282,Soloneshnoye,51.6544,84.3197,10.42,95,92,4.63,RU,1645277716
283,Margate,51.3813,1.3862,46.31,81,100,8.99,GB,1645277716
284,Rocha,-34.4833,-54.3333,78.01,54,7,2.53,UY,1645277607
285,Tautira,-17.7333,-149.15,73.42,74,51,15.1,PF,1645277716
286,Saurimo,-9.6608,20.3916,74.98,72,79,6.87,AO,1645277716
287,Te Anau,-45.4167,167.7167,43.27,93,10,1.7,NZ,1645277716
288,Andenes,69.3143,16.1194,29.07,64,40,18.41,NO,1645277716
289,Christchurch,-43.5333,172.6333,54.0,89,75,8.05,NZ,1645277717
290,Tezu,27.9167,96.1667,62.04,45,23,4.23,IN,1645277717
291,Port Hedland,-20.3167,118.5667,87.85,74,46,9.22,AU,1645277717
292,Vostok,46.4856,135.8833,-2.87,99,80,2.68,RU,1645277717
293,Magdagachi,53.45,125.8,-9.45,98,93,3.36,RU,1645277717
294,Aksarka,66.5606,67.7975,26.89,93,100,16.67,RU,1645277717
295,Bara,10.3744,10.7288,91.18,10,44,10.13,NG,1645277707
296,Nyuksenitsa,60.4128,44.2397,30.33,91,100,11.21,RU,1645277717
297,Nur-Sultan,51.1801,71.446,8.55,66,3,6.71,KZ,1645277439
298,Barra de Tecoanapa,16.5167,-98.75,75.74,67,2,4.07,MX,1645277717
299,Nechí,8.0942,-74.7757,78.37,83,74,1.97,CO,1645277717
300,Turtas,58.9417,69.1325,23.38,85,6,10.18,RU,1645277718
301,Caravelas,-17.7125,-39.2481,86.38,58,63,12.19,BR,1645277718
302,Vigrestad,58.5667,5.7,38.97,97,100,1.41,NO,1645277718
303,Sinnamary,5.3833,-52.95,74.19,93,98,3.44,GF,1645277718
304,Zambezi,-13.5432,23.1047,76.95,73,64,7.02,ZM,1645277718
305,Ketchikan,55.3422,-131.6461,42.78,93,100,3.44,US,1645277718
306,Nabire,-3.3667,135.4833,76.37,92,100,2.01,ID,1645277718
307,Mīnāb,27.1467,57.0801,82.72,32,0,6.91,IR,1645277452
308,Pisco,-13.7,-76.2167,69.85,88,75,1.14,PE,1645277718
309,Horsham,51.064,-0.3272,46.49,86,75,21.85,GB,1645277718
310,Darhan,49.4867,105.9228,-5.04,92,98,4.92,MN,1645277718
311,Billings Metropolitan Area,45.7833,-108.5007,34.5,74,20,14.97,US,1645277719
312,Terney,45.0503,136.6092,12.85,90,62,6.96,RU,1645277719
313,Kupang,-10.1667,123.5833,80.42,82,100,5.39,ID,1645277719
314,Benemérito de las Américas,16.5167,-90.6439,69.71,97,73,0.25,MX,1645277719
315,Manavālakurichi,8.1333,77.3,84.29,76,90,10.51,IN,1645277719
316,Sitka,57.0531,-135.33,37.29,87,100,8.05,US,1645277719
317,Cartagena,10.3997,-75.5144,78.42,83,20,2.3,CO,1645277719
318,Ipixuna,-1.7625,-48.8043,84.15,58,100,4.41,BR,1645277719
319,Lavrentiya,65.5833,-171.0,-21.86,95,29,6.8,RU,1645277580
320,Trincomalee,8.5711,81.2335,80.37,78,73,12.59,LK,1645277720
321,Vengerovo,55.6848,76.7471,-0.62,100,39,5.08,RU,1645277720
322,Simao,22.7886,100.9748,59.67,62,100,4.07,CN,1645277720
323,George Town,5.4112,100.3354,84.15,78,20,7.0,MY,1645277720
324,Brighton,50.8284,-0.1395,46.74,89,75,31.07,GB,1645277580
325,Vardø,70.3705,31.1107,23.2,75,100,28.88,NO,1645277720
326,Bariloche,-41.1456,-71.3082,60.55,59,40,14.97,AR,1645277437
327,Kamaishi,39.2667,141.8833,39.38,96,100,2.28,JP,1645277720
328,Nevers,46.9896,3.159,49.71,46,75,12.66,FR,1645277578
329,Beloha,-25.1667,45.05,82.56,59,1,19.04,MG,1645277720
330,Helong,42.5397,128.9972,4.62,83,16,5.97,CN,1645277720
331,Hay River,60.8156,-115.7999,-11.22,77,75,8.05,CA,1645277721
332,Eyl,7.9803,49.8164,78.31,64,4,24.4,SO,1645277721
333,Megion,61.0296,76.1136,24.82,86,19,13.29,RU,1645277465
334,Nizwá,22.9333,57.5333,80.33,22,0,6.49,OM,1645277721
335,Mehamn,71.0357,27.8492,25.81,70,100,21.72,NO,1645277721
336,Eqbālīyeh,35.3022,51.5358,58.82,44,100,12.26,IR,1645277721
337,Broome,42.2506,-75.833,30.02,70,100,8.05,US,1645277721
338,Brownsville,25.9018,-97.4975,51.78,79,75,9.22,US,1645277721
339,Yeppoon,-23.1333,150.7333,78.58,76,21,15.84,AU,1645277722
340,Russell,32.3502,-85.1999,36.05,66,0,8.55,US,1645277722
341,Roviés,38.8167,23.2333,63.39,68,0,5.97,GR,1645277722
342,Fort Frances,48.5999,-93.4003,-19.98,83,0,5.75,CA,1645277722
343,Novy Urengoy,66.0833,76.6333,19.13,92,100,15.66,RU,1645277428
344,Thunder Bay,48.4001,-89.3168,-2.43,74,0,6.91,CA,1645277535
345,Arrondissement de Rodez,44.5,2.5833,47.88,53,75,16.11,FR,1645277722
346,Antalaha,-14.9003,50.2788,86.02,55,71,11.41,MG,1645277722
347,Maxixe,-23.8597,35.3472,87.62,48,40,9.22,MZ,1645277722
348,Pemba,-12.974,40.5178,86.7,79,75,9.22,MZ,1645277722
349,Mareeba,-17.0,145.4333,74.44,90,27,2.33,AU,1645277723
350,Herat Province,34.5,62.0,54.63,37,8,4.16,AF,1645277723
351,Padang,-0.9492,100.3543,77.05,80,87,3.83,ID,1645277723
352,Chillicothe,39.3331,-82.9824,33.51,57,40,20.71,US,1645277723
353,Bambous Virieux,-20.3428,57.7575,82.65,83,75,20.71,MU,1645277723
354,Burley,42.5357,-113.7928,33.71,86,0,0.0,US,1645277723
355,Dunedin,-45.8742,170.5036,50.81,85,1,3.98,NZ,1645277723
356,Baghramyan,40.1934,44.3683,52.59,28,6,1.14,AM,1645277723
357,Havelock,34.8791,-76.9013,45.93,78,0,1.99,US,1645277723
358,Pitimbu,-7.4706,-34.8086,84.79,66,90,8.55,BR,1645277724
359,Pervomayskaya,43.4033,45.5261,42.6,81,20,8.95,RU,1645277724
360,Collie,-33.3667,116.15,69.98,52,97,9.98,AU,1645277724
361,Cravo Norte,6.3017,-70.2041,86.56,40,81,13.85,CO,1645277724
362,Tungor,53.3808,142.9564,11.77,95,100,11.23,RU,1645277724
363,Agadez,19.75,10.25,72.93,13,14,6.58,NE,1645277724
364,Tretiy Severnyy,60.2086,59.9611,28.87,82,100,9.57,RU,1645277724
365,Arman',59.7,150.1667,-9.26,82,70,11.03,RU,1645277724
366,Katherine,-14.4667,132.2667,77.32,83,20,4.61,AU,1645277724
367,Port Blair,11.6667,92.75,77.04,78,75,4.61,IN,1645277724
368,Estelle,29.8458,-90.1067,45.0,69,75,8.05,US,1645277724
369,Tagusao,9.1924,117.8141,79.54,82,74,6.87,PH,1645277724
370,Requena,39.4883,-1.1004,53.13,80,100,7.94,ES,1645277725
371,Manthani,18.65,79.6667,82.72,31,22,4.27,IN,1645277725
372,Vallenar,-28.5708,-70.7581,74.1,51,0,4.43,CL,1645277725
373,Thinadhoo,0.5333,72.9333,82.0,71,96,8.68,MV,1645277725
374,Lithakia,37.7167,20.8333,63.77,67,0,4.79,GR,1645277725
375,Hadrut,39.52,47.0318,51.35,44,6,5.46,AZ,1645277725
376,Olinda,-8.0089,-34.8553,78.53,89,75,2.3,BR,1645277425
377,San Alberto,7.7611,-73.3922,81.72,68,60,3.65,CO,1645277725
378,Luganville,-15.5333,167.1667,79.36,87,92,4.34,VU,1645277725
379,Sur,22.5667,59.5289,74.25,55,0,4.85,OM,1645277725
380,Omboué,-1.5746,9.2618,85.82,63,71,10.04,GA,1645277726
381,Mariental,-24.6333,17.9667,90.1,28,52,4.36,NA,1645277726
382,Chimbote,-9.0853,-78.5783,74.16,72,71,4.43,PE,1645277726
383,San Carlos,9.6612,-68.5827,84.97,43,44,2.06,VE,1645277726
384,Griffith,41.5284,-87.4237,13.62,62,0,14.97,US,1645277726
385,Dudinka,69.4058,86.1778,16.63,94,100,22.08,RU,1645277726
386,Lātehār,23.75,84.5,66.2,28,25,1.97,IN,1645277726
387,Igurusi,-8.85,33.85,74.28,75,85,4.0,TZ,1645277726
388,Daru,-9.0763,143.2092,81.18,80,89,6.06,PG,1645277726
389,Fare,-16.7,-151.0167,79.52,78,86,13.98,PF,1645277726
390,Keskin,39.6731,33.6136,34.16,78,98,3.06,TR,1645277726
391,Martapura,-3.4167,114.85,80.69,89,100,3.44,ID,1645277727
392,Sydney,-33.8679,151.2073,72.7,73,75,6.91,AU,1645277701
393,Karpathos,35.507,27.2132,60.76,39,0,24.16,GR,1645277727
394,Petropavlovsk-Kamchatskiy,53.0452,158.6483,19.99,53,75,8.95,RU,1645277654
395,Borogontsy,62.6683,131.1683,-31.54,100,100,0.45,RU,1645277727
396,Vestmanna,62.1564,-7.1664,31.12,59,20,3.44,FO,1645277727
397,Hobyo,5.3505,48.5268,79.16,65,86,19.91,SO,1645277727
398,Amethī,26.15,81.8167,65.86,43,0,9.01,IN,1645277727
399,Salisbury,51.0693,-1.7957,50.29,93,75,25.32,GB,1645277727
400,Taltal,-25.4,-70.4833,71.44,71,2,6.58,CL,1645277727
401,Alanya,36.5438,31.9998,64.53,45,0,1.77,TR,1645277504
402,Ōdachō-ōda,35.1833,132.5,43.0,80,100,10.92,JP,1645277728
403,Mongo,12.1844,18.693,90.93,10,1,10.65,TD,1645277695
404,Maumere,-8.6199,122.2111,80.17,81,100,5.08,ID,1645277728
405,Pandan,14.0453,124.1694,78.03,89,81,8.19,PH,1645277728
406,Pimenta Bueno,-11.6725,-61.1936,73.96,96,100,3.83,BR,1645277728
407,Vanderhoof,54.0166,-124.0198,36.55,80,100,10.07,CA,1645277728
408,Tarnos,43.5417,-1.4628,59.14,77,20,11.5,FR,1645277728
409,Amazar,53.858,120.875,-10.01,97,100,3.96,RU,1645277728
410,Vila Franca do Campo,37.7167,-25.4333,57.61,62,100,6.02,PT,1645277728
411,Luoyang,34.6836,112.4536,37.98,30,90,2.04,CN,1645277728
412,Wazirabad,32.4458,74.1159,67.98,36,74,8.08,PK,1645277729
413,Karasjok,69.4719,25.5112,23.11,90,100,7.87,NO,1645277729
414,Fianarantsoa,-21.4333,47.0833,69.64,80,67,9.04,MG,1645277729
415,Talā,30.6803,30.9429,55.15,66,100,14.67,EG,1645277461
416,Khromtau,50.2503,58.4347,1.22,99,5,2.3,KZ,1645277729
417,Finschhafen,-6.6024,147.8681,80.76,84,100,12.62,PG,1645277729
418,Coruripe,-10.1256,-36.1756,88.0,56,34,14.18,BR,1645277729
419,Waipawa,-41.4122,175.5153,57.45,96,100,3.36,NZ,1645277729
420,Qinzhou,21.95,108.6167,43.61,88,100,20.54,CN,1645277729
421,Imbituba,-28.24,-48.6703,78.69,60,0,5.88,BR,1645277729
422,Ndélé,8.4109,20.6473,102.63,7,40,5.3,CF,1645277730
423,Shellbrook,53.2168,-106.4011,4.23,94,100,9.6,CA,1645277730
424,Nuuk,64.1835,-51.7216,7.41,56,20,14.97,GL,1645277583
425,Seoul,37.5683,126.9778,25.99,50,0,14.97,KR,1645277570
426,Ust'-Uda,54.1742,103.0304,8.04,98,100,1.77,RU,1645277730
427,Envira,-7.3,-70.2167,81.12,75,84,3.31,BR,1645277730
428,Corinth,37.9407,22.9573,64.76,56,0,2.59,GR,1645277660
429,Havre-St-Pierre,50.2334,-63.5986,1.99,71,40,5.75,CA,1645277730
430,Dimbokro,6.6451,-4.7048,102.27,26,100,1.81,CI,1645277730
431,Chapais,49.7834,-74.8492,-11.42,93,100,8.41,CA,1645277730
432,Mbini,1.574,9.6134,87.64,71,95,9.6,GQ,1645277730
433,Otane,-39.8833,176.6333,64.0,93,100,2.48,NZ,1645277730
434,Betsiamites,48.9413,-68.646,8.49,84,100,5.77,CA,1645277730
435,Ilulissat,69.2167,-51.1,21.22,53,75,31.07,GL,1645277481
436,Tupik,54.4253,119.9327,-8.37,100,100,1.79,RU,1645277731
437,Iracoubo,5.4802,-53.2011,75.25,93,99,6.11,GF,1645277731
438,Fresnillo,23.1667,-102.8833,54.0,67,42,2.91,MX,1645277731
439,Hudson Bay,52.85,-102.3842,0.03,96,100,10.07,CA,1645277731
440,Pangai,-19.8,-174.35,81.46,74,5,11.95,TO,1645277731
441,Cabra,37.4725,-4.4421,61.66,65,100,1.01,ES,1645277731
442,Berlevåg,70.8578,29.0864,26.44,74,100,25.12,NO,1645277731
443,High Level,58.5169,-117.136,-5.69,77,40,10.36,CA,1645277731
444,Rockland,41.1668,-74.0496,32.68,64,51,1.01,US,1645277731
445,Zeya,53.75,127.2667,-4.58,96,90,3.87,RU,1645277567
446,Grindavik,63.8424,-22.4338,30.67,69,20,29.93,IS,1645277732
447,Tianpeng,30.9866,103.9393,43.27,70,100,3.29,CN,1645277732
448,Elizabeth City,36.2946,-76.2511,41.02,79,0,6.91,US,1645277732
449,Lata,40.1629,-8.3327,60.71,37,2,10.2,PT,1645277732
450,Flinders,-34.5833,150.8552,70.21,73,42,6.67,AU,1645277732
451,Departamento de Maldonado,-34.6667,-54.9167,75.22,53,0,3.0,UY,1645277732
452,Ivanivka,46.7208,34.553,47.5,53,54,17.47,UA,1645277732
453,Belmonte,-15.8631,-38.8828,86.5,60,76,9.75,BR,1645277732
454,Corinth,37.9407,22.9573,64.76,56,0,2.59,GR,1645277660
455,Maţāy,28.419,30.7792,66.36,31,87,24.02,EG,1645277483
456,Souris,49.6172,-100.2612,2.73,79,99,12.08,CA,1645277733
457,Camaná,-16.6228,-72.7111,72.59,83,100,4.61,PE,1645277733
458,Puri,19.8,85.85,81.12,76,62,9.66,IN,1645277733
459,Ballina,-28.8667,153.5667,75.16,85,96,9.22,AU,1645277733
460,Santa Fe,-31.6333,-60.7,86.76,51,2,5.99,AR,1645277733
461,Maniitsoq,65.4167,-52.9,-5.12,95,91,6.51,GL,1645277476
462,Westport,41.1415,-73.3579,35.56,65,0,15.01,US,1645277733
463,Coyhaique,-45.5752,-72.0662,58.95,77,75,6.91,CL,1645277695
464,Kemijärvi,66.7131,27.4306,22.98,93,100,8.72,FI,1645277733
465,Beringovskiy,63.05,179.3167,-16.44,97,41,10.49,RU,1645277733
466,Uglovoye,44.8215,33.6045,47.57,67,6,15.77,UA,1645277734
467,Neyshabur,36.2133,58.7958,52.34,28,5,3.67,IR,1645277734
468,Colquiri,-17.4167,-67.1333,43.79,54,86,0.92,BO,1645277734
469,Cam Ranh,11.9214,109.1591,76.96,83,20,2.3,VN,1645277734
470,Pitkyaranta,61.5734,31.4792,31.1,97,100,6.76,RU,1645277734
471,Powell River,49.8496,-124.5361,44.08,90,100,5.46,CA,1645277734
472,Inuvik,68.3499,-133.7218,-17.54,76,75,5.75,CA,1645277640
473,Visby,57.6409,18.296,34.77,86,100,21.85,SE,1645277734
474,Kangaatsiaq,68.3065,-53.4641,-7.94,95,100,10.07,GL,1645277734
475,Lamar,33.6668,-95.5836,37.53,55,0,4.61,US,1645277485
476,Nanding,36.7483,118.0558,28.94,26,0,4.23,CN,1645277735
477,Himatnagar,23.6,72.95,86.81,20,18,8.59,IN,1645277735
478,Yoichi,43.2039,140.7703,29.23,82,100,6.51,JP,1645277735
479,Maragogi,-9.0122,-35.2225,86.97,56,48,12.39,BR,1645277735
480,Spring Valley,36.108,-115.245,49.37,34,0,8.05,US,1645277735
481,Klyuchi,52.2667,79.1667,4.93,93,23,5.32,RU,1645277735
482,Örnsköldsvik,63.2909,18.7153,25.75,80,20,5.75,SE,1645277736
483,Geraldton,-28.7667,114.6,79.21,61,18,12.66,AU,1645277736
484,Anqiu,36.4342,119.1925,24.62,33,0,6.55,CN,1645277736
485,Leningradskiy,69.3833,178.4167,-30.01,96,79,4.7,RU,1645277736
486,Whittlesea,-32.1759,26.8244,92.41,15,83,18.7,ZA,1645277736
487,Faanui,-16.4833,-151.75,80.26,73,100,12.21,PF,1645277736
488,Matara,5.9485,80.5353,78.03,82,82,0.65,LK,1645277686
489,Puerto Nariño,-3.7703,-70.3831,75.15,70,91,3.71,CO,1645277736
490,Myitkyina,25.3833,97.4,62.44,38,0,2.55,MM,1645277736
491,Dzaoudzi,-12.7887,45.2699,85.89,70,100,3.44,YT,1645277737
492,El Alto,-4.2714,-81.2147,74.86,63,66,4.68,PE,1645277737
493,Young,-32.6833,-57.6333,81.23,39,0,5.32,UY,1645277737
494,Canchungo,12.0672,-16.0333,93.33,11,48,1.25,GW,1645277737
495,Ḩasanābād,36.5465,61.0543,70.02,23,0,6.91,IR,1645277737
496,Māngrol,21.1167,70.1167,76.12,55,16,14.92,IN,1645277737
497,La Palma,33.8464,-118.0467,63.9,68,0,0.0,US,1645277737
498,Dhārchula,29.85,80.5333,48.97,62,80,4.79,IN,1645277737
499,Galesong,-5.3166,119.3661,78.82,77,99,5.39,ID,1645277737
500,Līsakovsk,52.5369,62.4936,0.73,92,5,5.19,KZ,1645277737
501,Saint-Louis,16.3333,-15.0,92.43,8,2,9.48,SN,1645277737
502,Bintulu,3.1667,113.0333,77.41,100,40,5.01,MY,1645277738
503,Rafaela,-31.2503,-61.4867,90.05,43,0,1.99,AR,1645277738
504,Lubango,-14.9172,13.4925,69.91,71,92,1.3,AO,1645277594
505,General Roca,-39.0333,-67.5833,82.62,25,0,9.66,AR,1645277536
506,Biu,10.6129,12.1946,88.34,10,37,10.2,NG,1645277738
507,Saint-Augustin,51.226,-58.6502,0.63,78,92,10.22,CA,1645277738
508,Kachīry,53.0675,76.1036,3.34,92,5,4.92,KZ,1645277738
509,Brae,60.3964,-1.353,40.91,57,26,15.14,GB,1645277738
510,Umluj,25.0213,37.2685,66.06,47,0,13.29,SA,1645277739
511,Saint George,37.1041,-113.5841,48.34,44,0,4.61,US,1645277739
512,Ruidoso,33.3317,-105.673,33.15,40,0,5.75,US,1645277739
513,Safranbolu,41.2508,32.6942,46.13,68,5,1.48,TR,1645277739
514,Strezhevoy,60.7333,77.5889,24.78,91,19,8.7,RU,1645277739
515,Chernyshevskiy,63.0128,112.4714,-25.35,100,93,2.28,RU,1645277739
516,Sterling,39.0062,-77.4286,34.59,66,0,11.99,US,1645277597
517,Mount Gambier,-37.8333,140.7667,51.71,87,99,3.44,AU,1645277739
518,Watertown,42.3709,-71.1828,28.98,58,0,9.22,US,1645277739
519,Buraidah,26.326,43.975,82.85,46,53,19.82,SA,1645277640
520,Comodoro Rivadavia,-45.8667,-67.5,69.66,46,20,12.66,AR,1645277740
521,Akureyri,65.6835,-18.0878,17.53,62,0,2.3,IS,1645277440
522,Fairbanks,64.8378,-147.7164,2.82,82,100,0.0,US,1645277740
523,Iwaki,37.05,140.8833,40.77,93,100,4.65,JP,1645277740
524,Oriximiná,-1.7656,-55.8661,81.43,69,97,3.13,BR,1645277740
525,Viedma,-40.8135,-62.9967,81.3,35,52,7.76,AR,1645277740
526,Kamskiye Polyany,55.4307,51.4171,27.41,93,100,15.48,RU,1645277740
527,Banff,51.1762,-115.5698,39.58,56,91,10.36,CA,1645277512
528,Cockburn Town,21.4612,-71.1419,77.14,75,100,16.22,TC,1645277740
529,San Policarpo,12.1791,125.5072,80.13,83,100,8.23,PH,1645277740
530,Salalah,17.0151,54.0924,78.89,57,40,6.91,OM,1645277740
531,Isla Vista,34.4133,-119.861,59.83,58,0,0.0,US,1645277741
532,Abéché,13.8292,20.8324,89.6,10,0,8.14,TD,1645277741
533,Pahrump,36.2083,-115.9839,48.18,31,0,1.05,US,1645277741
534,Tadine,-21.55,167.8833,78.26,87,100,9.69,NC,1645277741
535,Birjand,32.8663,59.2211,63.07,15,0,13.8,IR,1645277741
536,Kailua,21.4022,-157.7394,69.78,97,19,1.01,US,1645277741
537,Robāţ Karīm,35.4846,51.0829,57.06,30,100,10.36,IR,1645277642
538,Bo Phloi,14.3236,99.5161,84.31,72,20,2.42,TH,1645277741
539,Mozarlândia,-14.7447,-50.5706,70.12,98,100,7.52,BR,1645277741
540,Birao,10.2849,22.7882,96.3,7,14,10.4,CF,1645277741
541,Châteauroux,46.8167,1.7,50.0,53,75,16.11,FR,1645277741
542,Bandarbeyla,9.4942,50.8122,76.75,66,0,18.52,SO,1645277741
543,Medzilaborce,49.2719,21.9007,50.79,54,29,7.0,SK,1645277742
544,Ati,13.2154,18.3353,89.55,10,2,16.51,TD,1645277742
545,Ullapool,57.8987,-5.1604,44.76,79,6,4.43,GB,1645277742
546,Boa Vista,2.8197,-60.6733,82.38,57,0,13.8,BR,1645277742
547,Sokoni,-6.4333,39.55,89.89,73,68,11.72,TZ,1645277473
548,Kampene,-3.6,26.6667,74.37,89,99,4.41,CD,1645277742
549,San Ramon,37.7799,-121.978,52.9,77,0,1.01,US,1645277742
550,Syas'stroy,60.1367,32.5691,32.49,98,100,10.02,RU,1645277742
551,Brønnøysund,65.4625,12.1997,32.0,93,100,5.99,NO,1645277742
552,Standerton,-26.9337,29.2415,72.61,63,70,4.94,ZA,1645277742
